<?xml version="1.0" encoding="UTF-8"?>

<kml xmlns="http://earth.google.com/kml/2.0">

<Document>


<Style id="z1">

 <IconStyle>
  <Icon>
   <href>http://www.google.com/intl/en_us/mapfiles/ms/micons/blue-dot.png</href>
  </Icon>
 </IconStyle>

</Style>


<Placemark>
<name>Office SFO</name>

<styleUrl>#z1</styleUrl>
<Point><coordinates>-118.289,34.025</coordinates>
</Point>

</Placemark>

<Placemark>
<name>Jeff/Mck </name>

<styleUrl>#z1</styleUrl>
<Point><coordinates>-118.287,34.025</coordinates>
</Point>

</Placemark>

<Placemark>
<name>Mud Hall MHP</name>

<styleUrl>#z1</styleUrl>
<Point><coordinates>-118.287,34.0186</coordinates> 
</Point>

</Placemark>


<Placemark>
<name>SAL Comp ctr</name>

<styleUrl>#z1</styleUrl>
<Point><coordinates>-118.29,34.021</coordinates>
</Point>

</Placemark>

<Placemark>
<name> Jeff/Vermont </name>

<styleUrl>#z1</styleUrl>
<Point><coordinates>-118.29,34.022</coordinates>
</Point>

</Placemark>

<Placemark>
<name> Home </name>

<styleUrl>#z1</styleUrl>
<Point><coordinates>-118.283,34.029</coordinates>
</Point>

</Placemark>

<Placemark>
<name> USC Bookstore </name>

<styleUrl>#z1</styleUrl>
<Point><coordinates>-118.2858,34.0205 </coordinates>
</Point>

</Placemark>

<Placemark>
<name> VKC </name>

<styleUrl>#z1</styleUrl>
<Point><coordinates>-118.2838,34.0208 </coordinates>
</Point>

</Placemark>

<Placemark>
<name> Starbucks </name>

<styleUrl>#z1</styleUrl>
<Point><coordinates>-118.282,34.0213 </coordinates>
</Point>

</Placemark>


<Placemark>
<name> Galen Center </name>

<styleUrl>#z1</styleUrl>
<Point><coordinates>-118.280,34.0214 </coordinates>
</Point>

</Placemark>

</Document>
</kml>